[
  {
    "name": "Beto Carrero World",
    "address": "Rod. Beto Carrero World - Praia de Armação do Itapocorói, Penha - SC, 88385-000",
    "hours": "Quinta-feira à Domingo, das 10h às 19h",
    "image": "https://upload.wikimedia.org/wikipedia/commons/e/e5/Logo-oficial-beto-carrero-world.png",
    "cityState": "Penha - SC"
  },
  {
    "name": "Parque Tupã",
    "address": "Centro, Florianópolis - SC, 88010-400",
    "hours": "Terça-feira à Domingo, das 17h às 21h",
    "image": "https://pbs.twimg.com/profile_images/1166326768/logotupa_trans_400x400.png",
    "cityState": "Florianópolis - SC"
  },
  {
    "name": "Beto Carrero World",
    "address": "Rod. Beto Carrero World - Praia de Armação do Itapocorói, Penha - SC, 88385-000",
    "hours": "Quinta-feira à Domingo, das 10h às 19h",
    "image": "https://upload.wikimedia.org/wikipedia/commons/e/e5/Logo-oficial-beto-carrero-world.png"
  },
  {
    "name": "Parque Tupã",
    "address": "Centro, Florianópolis - SC, 88010-400",
    "hours": "Terça-feira à Domingo, das 17h às 21h",
    "image": "https://pbs.twimg.com/profile_images/1166326768/logotupa_trans_400x400.png"
  },
  {
    "name": "Beto Carrero World",
    "address": "Rod. Beto Carrero World - Praia de Armação do Itapocorói, Penha - SC, 88385-000",
    "hours": "Quinta-feira à Domingo, das 10h às 19h",
    "image": "https://upload.wikimedia.org/wikipedia/commons/e/e5/Logo-oficial-beto-carrero-world.png"
  },
  {
    "name": "Parque Tupã",
    "address": "Centro, Florianópolis - SC, 88010-400",
    "hours": "Terça-feira à Domingo, das 17h às 21h",
    "image": "https://pbs.twimg.com/profile_images/1166326768/logotupa_trans_400x400.png"
  }
]
